,City,Cloudiness,Country,Date,Humidity,Lat,Lng,Max Temp,Wind Speed
0,Rikitea,69,PF,1595372473,61,-23.12,-134.97,66.18,17.6
1,Port Elizabeth,0,ZA,1595372410,51,-33.92,25.57,62.6,10.29
2,Yellowknife,75,CA,1595372428,57,62.46,-114.35,77.0,12.75
3,Alta Gracia,90,AR,1595372799,81,-31.65,-64.43,55.0,9.17
4,Mataura,94,NZ,1595372471,83,-46.19,168.86,39.0,3.0
5,Vila Velha,40,BR,1595372231,83,-20.33,-40.29,75.0,12.75
6,Leningradskiy,99,RU,1595372487,52,69.38,178.42,53.65,12.24
7,Cape Town,0,ZA,1595372482,100,-33.93,18.42,50.0,1.12
8,Avera,1,US,1595372454,70,33.19,-82.53,86.0,8.05
9,Isaszeg,21,HU,1595372799,100,47.53,19.4,70.0,2.24
10,Landau,0,DE,1595372799,58,49.21,8.11,63.0,6.78
11,Naze,20,JP,1595372488,88,28.37,129.48,82.4,2.24
12,Samarai,89,PG,1595372476,78,-10.62,150.67,77.09,16.02
13,Jaguarari,38,BR,1595372800,86,-10.26,-40.2,65.41,10.47
14,Kapaa,20,US,1595372472,66,22.08,-159.32,84.99,14.99
15,Punta Arenas,11,CL,1595372277,92,-53.15,-70.92,24.8,4.7
16,Asău,0,RO,1595372442,94,46.43,26.4,60.01,3.31
17,Hithadhoo,85,MV,1595372501,69,-0.6,73.08,84.22,4.81
18,Verkhoyansk,13,RU,1595372522,35,67.54,133.38,79.83,13.94
19,Mahébourg,75,MU,1595372537,72,-20.41,57.7,68.0,13.87
20,Port Alfred,0,ZA,1595372474,26,-33.59,26.89,67.62,9.17
21,Ilulissat,95,GL,1595372431,50,69.22,-51.1,53.6,2.24
22,Thinadhoo,97,MV,1595372697,71,0.53,72.93,84.34,9.86
23,Marsh Harbour,96,BS,1595372403,78,26.54,-77.06,82.85,12.46
24,Ushuaia,32,AR,1595372473,87,-54.8,-68.3,32.0,5.82
25,Sobolevo,4,RU,1595372517,95,54.43,31.9,57.04,10.87
26,Bichena,100,ET,1595372801,100,10.45,38.2,53.92,1.74
27,Djambala,0,CG,1595372745,47,-2.54,14.75,73.49,1.79
28,Jurm,0,AF,1595372801,36,36.86,70.83,62.49,1.1
29,Jumla,100,NP,1595372489,70,29.27,82.18,59.31,1.39
30,Kayerkan,40,RU,1595372520,87,69.35,87.76,51.8,24.61
31,Lærdal,49,NO,1595372801,67,61.1,7.48,46.36,3.38
32,Jamestown,1,US,1595372333,65,42.1,-79.24,78.01,4.5
33,Dikson,100,RU,1595372488,93,73.51,80.55,40.14,9.42
34,Saskylakh,100,RU,1595372504,89,71.92,114.08,46.13,18.19
35,Meulaboh,100,ID,1595372247,90,4.14,96.13,75.24,4.23
36,Yizheng,100,CN,1595372801,10,24.67,103.43,66.0,38.99
37,Beira,20,MZ,1595372780,73,-19.84,34.84,69.8,6.93
38,Hay River,75,CA,1595372581,73,60.82,-115.8,71.6,12.75
39,Abu Kamal,0,SY,1595372586,24,34.45,40.92,85.69,19.48
40,Görele,75,TR,1595372802,64,41.03,39.0,75.2,5.82
41,Hermanus,0,ZA,1595372476,96,-34.42,19.23,46.0,5.39
42,Carolina,75,PR,1595372802,79,18.38,-65.96,84.2,18.34
43,Tuktoyaktuk,75,CA,1595372471,75,69.45,-133.04,42.8,5.82
44,Florianópolis,30,BR,1595372332,68,-27.61,-48.5,72.0,2.24
45,Beloha,19,MG,1595372590,72,-25.17,45.05,60.89,10.04
46,Butaritari,100,KI,1595372490,84,3.07,172.79,78.55,11.05
47,São Filipe,54,CV,1595372559,79,14.9,-24.5,77.27,3.38
48,Palu,67,ID,1595372781,78,-0.89,119.87,76.12,2.93
49,East London,0,ZA,1595372496,27,-33.02,27.91,65.32,6.69
50,Vila,57,PT,1595372588,69,42.03,-8.16,73.4,3.36
51,Khromtau,86,KZ,1595372802,68,50.25,58.43,70.09,10.89
52,Brae,3,GB,1595372557,93,60.4,-1.35,46.4,0.96
53,Bilma,1,NE,1595372428,25,18.69,12.92,91.47,9.53
54,Sorong,27,ID,1595372755,83,-0.88,131.25,78.31,6.64
55,Vaini,40,TO,1595372472,69,-21.2,-175.2,73.4,3.36
56,Nikolskoye,40,RU,1595372502,82,59.7,30.79,63.0,8.95
57,Castro,1,BR,1595372482,84,-24.79,-50.01,58.06,3.8
58,Puerto Ayora,98,EC,1595372473,93,-0.74,-90.35,69.01,8.99
59,Callaway,1,US,1595372803,70,30.15,-85.57,87.8,6.93
60,Stutterheim,0,ZA,1595372516,31,-32.57,27.42,55.38,5.35
61,Busselton,3,AU,1595372476,81,-33.65,115.33,57.99,13.4
62,Tombouctou,22,ML,1595372803,14,20.0,-3.0,101.91,9.04
63,Bethel,1,US,1595372495,45,41.37,-73.41,88.0,8.05
64,Eureka,53,US,1595372445,55,40.8,-124.16,68.0,1.01
65,Portland,20,US,1595372432,33,45.52,-122.68,91.0,8.05
66,Tiksi,98,RU,1595372477,88,71.69,128.87,49.77,3.69
67,Bluff,99,NZ,1595372186,83,-46.6,168.33,39.0,3.0
68,Vostok,0,RU,1595372481,74,46.49,135.88,70.27,2.59
69,Pevek,100,RU,1595372400,58,69.7,170.31,49.87,2.26
70,Bonavista,78,CA,1595372442,72,48.65,-53.11,65.97,10.31
71,Lerwick,11,GB,1595372516,93,60.15,-1.15,46.4,2.24
72,Albany,2,US,1595372479,48,42.6,-73.97,84.0,6.22
73,Hilo,1,US,1595372192,58,19.73,-155.09,84.2,10.29
74,Buchanan,75,LR,1595372804,94,5.88,-10.05,77.0,7.18
75,Bagdarin,4,RU,1595372726,69,54.43,113.6,55.04,1.05
76,Sur,100,OM,1595372463,71,22.57,59.53,84.38,16.06
77,Bengkulu,93,ID,1595372478,87,-3.8,102.27,76.42,7.23
78,Clyde River,90,CA,1595372415,100,70.47,-68.59,44.6,6.93
79,Bell Ville,100,AR,1595372805,98,-32.63,-62.69,53.01,4.0
80,Yatou,100,CN,1595372454,81,37.15,122.38,71.78,1.72
81,Toora-Khem,100,RU,1595372805,86,52.47,96.11,58.41,1.7
82,Cidreira,99,BR,1595372500,68,-30.18,-50.21,66.0,6.98
83,Nālūt,0,LY,1595372448,56,30.33,10.85,75.63,15.48
84,Olinda,40,BR,1595372518,69,-8.01,-34.86,78.8,12.75
85,Berlevåg,99,NO,1595372473,75,70.86,29.09,58.96,6.38
86,Avarua,71,CK,1595372497,78,-21.21,-159.78,78.8,19.46
87,Egvekinot,79,RU,1595372400,54,66.32,-179.17,52.18,3.09
88,Srednekolymsk,15,RU,1595372439,30,67.45,153.68,80.22,16.91
89,Barrow,90,US,1595372474,80,71.29,-156.79,35.6,6.93
90,Somova,0,RO,1595372805,60,45.18,28.67,73.4,12.75
91,Kavieng,4,PG,1595372448,71,-2.57,150.8,83.77,6.91
92,Saint Paul Harbor,1,US,1595372481,43,57.79,-152.41,73.4,11.41
93,Geraldton,0,AU,1595372400,93,-28.77,114.6,48.2,11.41
94,Bredasdorp,0,ZA,1595372487,93,-34.53,20.04,48.2,3.36
95,Silver City,40,US,1595372806,32,32.77,-108.28,84.2,18.34
96,Port-Cartier,75,CA,1595372413,40,50.03,-66.87,73.4,17.22
97,Nipawin,1,CA,1595372714,57,53.37,-104.0,75.2,5.82
98,Qaanaaq,49,GL,1595372483,61,77.48,-69.36,47.52,5.1
99,Lebu,88,CL,1595372476,84,-37.62,-73.65,50.29,9.8
100,Esperance,0,AU,1595372436,81,-33.87,121.9,44.6,17.22
101,Cabo San Lucas,20,MX,1595372323,58,22.89,-109.91,93.2,17.22
102,Camaçari,90,BR,1595372806,94,-12.7,-38.32,71.6,4.7
103,Alta Floresta,0,BR,1595372424,35,-9.88,-56.09,75.43,2.66
104,Talara,72,PE,1595372456,84,-4.58,-81.27,63.84,14.14
105,Khovd,100,MN,1595372570,57,48.01,91.64,66.99,2.3
106,Marabu,40,MY,1595372444,100,4.41,114.01,77.0,2.24
107,Hobart,75,AU,1595372243,70,-42.88,147.33,48.99,8.05
108,Chui,100,UY,1595372414,85,-33.7,-53.46,65.34,6.24
109,Khatanga,35,RU,1595372416,58,71.97,102.5,57.58,11.54
110,Yangi Marg`ilon,0,UZ,1595372455,43,40.43,71.72,71.6,9.17
111,Praia da Vitória,20,PT,1595372765,60,38.73,-27.07,73.4,4.88
112,San Patricio,40,MX,1595372287,70,19.22,-104.7,91.4,23.04
113,Lorengau,38,PG,1595372510,68,-2.02,147.27,84.31,7.78
114,Porosozero,100,RU,1595372807,75,62.72,32.73,60.94,0.27
115,Chapleau,90,CA,1595372807,52,47.84,-83.4,69.8,4.7
116,Airai,81,TL,1595372420,81,-8.93,125.41,57.85,4.38
117,Sosnovo,96,RU,1595372807,80,60.55,30.21,62.01,6.73
118,Benguela,0,AO,1595372508,77,-12.58,13.41,67.93,3.47
119,Saint-Philippe,75,RE,1595372507,77,-21.36,55.77,62.6,8.05
120,Bindura,23,ZW,1595372808,89,-17.3,31.33,48.79,1.41
121,Qaqortoq,75,GL,1595372275,36,60.72,-46.03,62.6,9.17
122,Sioux Lookout,90,CA,1595372510,43,50.1,-91.92,71.6,5.82
123,Joshīmath,39,IN,1595372808,52,30.57,79.57,58.86,2.24
124,Yinchuan,40,CN,1595372709,61,38.47,106.27,71.83,7.09
125,Llata,9,PE,1595372808,71,-9.42,-76.78,50.02,4.79
126,Mackay,40,AU,1595372746,93,-21.15,149.2,64.0,9.17
127,Batyrevo,40,RU,1595372808,93,55.07,47.61,58.12,4.68
128,Hong Kong,2,HK,1595372214,83,22.29,114.16,84.99,5.01
129,Thompson,75,CA,1595372424,28,55.74,-97.86,82.4,11.41
130,Narasannapeta,100,IN,1595372808,86,18.42,84.05,81.82,9.37
131,Esim,94,GH,1595372449,90,4.87,-2.24,75.79,9.8
132,Lompoc,75,US,1595372447,68,34.64,-120.46,69.01,13.87
133,Rawson,100,AR,1595372263,72,-43.3,-65.1,43.29,19.66
134,Rāvar,0,IR,1595372445,22,31.27,56.81,72.25,1.39
135,Guarapari,13,BR,1595372809,87,-20.67,-40.5,75.0,10.0
136,Carutapera,62,BR,1595372414,92,-1.2,-46.02,75.18,5.35
137,Ribeira Grande,22,PT,1595372430,74,38.52,-28.7,69.57,3.49
138,Mossamedes,9,AO,1595372505,61,-15.2,12.15,67.77,3.4
139,Washington,1,US,1595372730,19,47.5,-120.5,96.01,5.82
140,Mudgee,42,AU,1595372809,70,-32.59,149.59,41.0,3.47
141,Hobyo,86,SO,1595372663,78,5.35,48.53,76.95,25.1
142,Tegul'det,89,RU,1595372809,94,57.31,88.17,53.1,6.53
143,Price,1,US,1595372501,16,39.6,-110.81,87.8,12.75
144,Tasiilaq,97,GL,1595372481,70,65.61,-37.64,48.2,6.93
145,Vestmannaeyjar,100,IS,1595372511,84,63.44,-20.27,51.66,8.66
146,Husavik,90,IS,1595372442,71,66.04,-17.34,51.8,8.05
147,College,90,US,1595372530,82,64.86,-147.8,55.4,9.17
148,Saint-François,100,FR,1595372434,60,46.42,3.91,73.4,4.7
149,Ballina,75,AU,1595372304,76,-28.87,153.57,55.4,11.41
150,Borovoy,90,RU,1595372700,100,55.43,86.08,59.0,8.95
151,Gazojak,7,TM,1595372810,22,41.19,61.4,82.49,9.13
152,Arraial do Cabo,0,BR,1595372415,88,-22.97,-42.03,71.6,4.7
153,Atuona,2,PF,1595372471,74,-9.8,-139.03,79.5,15.64
154,Taos,1,US,1595372810,24,36.41,-105.57,78.8,8.05
155,Klaksvík,2,FO,1595372493,93,62.23,-6.59,46.4,2.24
156,Shelburne,75,CA,1595372587,50,44.08,-80.2,77.0,4.7
157,Tazovsky,46,RU,1595372421,84,67.47,78.7,43.03,17.43
158,Necochea,100,AR,1595372516,94,-38.55,-58.74,51.01,20.0
159,Zyryanka,60,RU,1595372445,35,65.75,150.85,79.61,23.55
160,São João da Barra,0,BR,1595372293,88,-21.64,-41.05,71.98,15.88
161,Faanui,52,PF,1595372435,83,-16.48,-151.75,76.86,23.22
162,Shimoda,71,JP,1595372464,84,34.67,138.95,77.0,1.99
163,Herat Province,0,AF,1595372546,17,34.5,62.0,78.75,16.64
164,Laas,40,IT,1595372475,93,46.62,10.7,60.01,5.82
165,Yerofey Pavlovich,37,RU,1595372811,85,53.97,121.97,54.75,1.86
166,Rosarito,5,MX,1595372433,64,32.33,-117.03,78.01,18.34
167,Pisco,4,PE,1595372442,77,-13.7,-76.22,64.4,10.29
168,Ponta do Sol,20,PT,1595372519,68,32.67,-17.1,71.6,9.17
169,Cedar City,1,US,1595372585,15,37.68,-113.06,87.8,10.29
170,Kjøllefjord,100,NO,1595372676,88,70.95,27.35,55.26,0.69
171,Upernavik,99,GL,1595372509,58,72.79,-56.15,48.96,6.42
172,Birkenfeld,16,DE,1595372812,55,48.87,8.63,64.0,5.82
173,Ostrovnoy,0,RU,1595372503,68,68.05,39.51,59.92,8.34
174,São Félix do Xingu,19,BR,1595372738,50,-6.64,-51.99,76.89,1.97
175,Champasak,62,LA,1595372780,99,14.75,106.0,72.84,2.68
176,Ust-Nera,39,RU,1595372723,39,64.57,143.2,75.81,6.31
177,Muros,0,ES,1595372534,78,42.78,-9.06,66.99,5.01
178,Iwanai,100,JP,1595372725,90,42.97,140.51,71.08,1.66
179,Kichera,37,RU,1595372401,51,55.94,110.1,59.74,1.19
180,Atar,47,MR,1595372423,30,20.52,-13.05,94.08,7.76
181,Chokurdakh,100,RU,1595372476,37,70.63,147.92,78.42,12.64
182,Meadow Lake,75,US,1595372599,22,34.8,-106.54,87.8,33.33
183,Coria,81,ES,1595372813,63,39.99,-6.54,73.99,3.0
184,Carnarvon,0,AU,1595372493,100,-24.87,113.63,59.0,8.05
185,Mweka,0,CD,1595372813,38,-4.85,21.57,69.4,0.65
186,Hewitt,20,US,1595372813,52,31.46,-97.2,91.4,8.05
187,Laguna,1,US,1595372172,44,38.42,-121.42,84.0,9.17
188,Fare,28,PF,1595372745,79,-16.7,-151.02,77.25,23.76
189,San Quintín,8,MX,1595372451,69,30.48,-115.95,71.51,16.8
190,Maïné Soroa,5,NE,1595372814,42,13.21,12.02,86.94,6.89
191,Skjervøy,100,NO,1595372814,97,70.03,20.97,49.44,8.3
192,Ürümqi,6,CN,1595372814,44,43.8,87.6,75.2,11.18
193,Bambous Virieux,75,MU,1595372482,72,-20.34,57.76,68.0,13.87
194,New Norfolk,100,AU,1595372416,79,-42.78,147.06,48.99,1.99
195,Corinth,0,GR,1595372717,45,37.94,22.96,80.01,1.99
196,Pierre,1,US,1595372481,37,44.37,-100.35,82.99,10.29
197,Shebunino,100,RU,1595372814,93,46.43,141.86,60.91,13.24
198,Makkah al Mukarramah,92,SA,1595372620,66,21.43,39.83,84.07,4.45
199,Ambulu,44,ID,1595372763,87,-8.35,113.61,74.64,2.37
200,Cayenne,75,GF,1595372195,94,4.93,-52.33,77.0,1.12
201,Poum,2,NC,1595372499,59,-20.23,164.02,70.0,6.35
202,Yar-Sale,23,RU,1595372675,73,66.83,70.83,47.44,4.21
203,Torbay,40,CA,1595372536,69,47.67,-52.73,73.4,18.34
204,Portel,47,BR,1595372815,71,-1.94,-50.82,80.13,2.68
205,Lagoa Nova,46,BR,1595372815,78,-6.1,-36.48,66.34,15.57
206,Cândido Mendes,84,BR,1595372815,95,-1.45,-45.72,74.48,3.56
207,Vila Franca do Campo,20,PT,1595372585,77,37.72,-25.43,64.4,4.7
208,Vardø,82,NO,1595372431,73,70.37,31.11,59.7,8.72
209,Utete,92,TZ,1595372815,86,-7.99,38.76,69.87,3.62
210,Shingū,75,JP,1595372512,78,33.73,135.98,82.4,4.7
211,Tibati,99,CM,1595372815,95,6.47,12.63,65.5,2.51
212,Lavrentiya,51,RU,1595372415,65,65.58,-171.0,48.76,6.44
213,Severo-Kuril'sk,24,RU,1595372502,81,50.68,156.12,52.23,9.55
214,Labuan,20,MY,1595372692,100,5.28,115.24,78.8,8.03
215,Kahului,20,US,1595372417,52,20.89,-156.47,87.8,14.99
216,Nizwá,100,OM,1595372441,69,22.93,57.53,81.32,5.08
217,Nome,75,US,1595372423,71,64.5,-165.41,57.0,16.11
218,Zhigansk,100,RU,1595372428,92,66.77,123.37,55.85,24.34
219,Cabra,2,ES,1595372816,67,37.47,-4.44,75.0,3.0
220,Sampit,28,ID,1595372659,97,-2.53,112.95,74.35,2.37
221,Dilla,100,ET,1595372498,81,6.41,38.31,61.27,2.98
222,Kupang,20,ID,1595372731,78,-10.17,123.58,75.2,11.41
223,Quito,75,EC,1595372619,68,-0.23,-78.52,64.4,12.75
224,Mildura,90,AU,1595372426,100,-34.2,142.15,39.0,5.82
225,Saint George,20,US,1595372505,23,37.1,-113.58,95.0,17.22
226,Karlstad,74,SE,1595372817,93,59.38,13.5,53.01,5.82
227,Eshowe,0,ZA,1595372817,62,-28.89,31.47,50.18,3.78
228,Billings Metropolitan Area,20,US,1595372817,21,45.78,-108.5,91.4,8.05
229,Sept-Îles,75,CA,1595372413,40,50.2,-66.38,73.4,17.22
230,Eyemouth,100,GB,1595372784,70,55.87,-2.09,54.0,9.86
231,Santa Isabel Rio Negro,58,BR,1595372795,81,-0.41,-65.02,77.49,2.37
232,Kununurra,1,AU,1595372562,32,-15.77,128.73,66.2,6.93
233,Iqaluit,90,CA,1595372194,87,63.75,-68.51,48.2,8.05
234,Comodoro Rivadavia,40,AR,1595372408,80,-45.87,-67.5,39.2,10.29
235,Katherine,47,AU,1595372251,33,-14.47,132.27,60.8,8.05
236,Ouadda,52,CF,1595372216,95,8.08,22.4,66.99,3.4
237,Mar del Plata,90,AR,1595372442,100,-38.0,-57.56,51.8,21.92
238,Launceston,40,AU,1595372451,100,-41.45,147.17,37.0,0.58
239,Kavaratti,100,IN,1595372525,83,10.57,72.64,80.6,17.22
240,Yantal',48,RU,1595372817,61,56.85,105.25,55.99,2.44
241,Jackson,1,US,1595372818,25,42.42,-122.83,100.0,8.05
242,Puerto Ayacucho,40,VE,1595372754,58,5.66,-67.62,86.0,2.35
243,Caravelas,0,BR,1595372420,77,-17.71,-39.25,69.1,4.05
244,Hohhot,76,CN,1595372770,72,40.81,111.65,62.6,4.47
245,Kaitangata,40,NZ,1595372406,64,-46.28,169.85,46.0,8.01
246,Eyl,19,SO,1595372427,67,7.98,49.82,79.5,28.07
247,Zhangye,32,CN,1595372739,34,38.93,100.45,71.62,5.5
248,Kirakira,17,SB,1595372536,69,-10.45,161.92,81.79,6.6
249,Kawalu,80,ID,1595372693,92,-7.38,108.21,71.2,0.94
250,George Town,20,MY,1595372192,94,5.41,100.34,78.8,2.24
251,Paita,89,PE,1595372603,82,-5.09,-81.11,64.02,15.03
252,Goderich,20,CA,1595372602,79,43.75,-81.72,70.0,6.93
253,Vao,52,NC,1595372477,76,-22.67,167.48,68.0,20.74
254,Okhotsk,0,RU,1595372434,63,59.38,143.3,60.71,3.49
255,Saldanha,0,ZA,1595372499,87,-33.01,17.94,53.6,2.24
256,Los Llanos de Aridane,90,ES,1595372419,73,28.66,-17.92,73.4,16.11
257,Haileybury,1,CA,1595372819,53,47.45,-79.64,71.6,3.36
258,Umm Hājar,56,TD,1595372433,63,13.3,19.7,83.14,8.79
259,Chiang Khong,100,TH,1595372819,99,20.26,100.4,68.0,0.56
260,Norman Wells,90,CA,1595372461,82,65.28,-126.83,55.4,14.99
261,Noumea,90,NC,1595372158,83,-22.28,166.46,69.8,4.7
262,Te Anau,41,NZ,1595372497,79,-45.42,167.72,38.14,3.47
263,Dongkan,100,CN,1595372819,97,34.0,119.83,69.48,6.71
264,Codrington,100,AU,1595372513,83,-38.27,141.97,50.27,7.58
265,Adrar,85,MR,1595372444,21,20.5,-10.07,94.37,4.99
266,Saint-Pierre,75,RE,1595372582,77,-21.34,55.48,62.6,8.05
267,Gizo Government Station,36,SB,1595372477,81,-8.1,156.84,81.05,20.09
268,Dushanbe,40,TJ,1595372819,34,38.56,68.78,78.8,8.95
269,Marzuq,100,YE,1595372677,56,14.4,46.47,81.75,6.44
270,Dubbo,80,AU,1595372753,87,-32.25,148.62,42.8,11.41
271,Elban,72,RU,1595372820,87,50.1,136.51,68.2,8.12
272,Arua,82,UG,1595372820,93,3.02,30.91,63.64,4.72
273,Santo Antônio do Içá,41,BR,1595372743,68,-3.1,-67.94,79.03,1.07
274,Touros,75,BR,1595372540,78,-5.2,-35.46,75.2,5.82
275,Kumul,17,CN,1595372591,43,42.8,93.45,73.06,9.15
276,Zeya,67,RU,1595372529,68,53.75,127.27,64.63,8.08
277,Puerto Carreño,40,CO,1595372669,58,6.19,-67.49,86.0,4.7
278,Butembo,91,CD,1595372753,98,0.15,29.28,57.49,1.86
279,Newport,20,GB,1595372762,80,51.59,-3.0,59.0,4.14
280,Dingle,99,PH,1595372513,89,11.0,122.67,77.92,4.52
281,Aklavik,90,CA,1595372446,81,68.22,-135.01,46.4,5.82
282,Littleton,75,US,1595372650,44,39.61,-105.02,82.0,6.93
283,Olafsvik,100,IS,1595372485,73,64.89,-23.71,49.44,2.17
284,Dinar,0,TR,1595372821,49,38.06,30.17,71.6,19.46
285,Khani,90,GE,1595372744,88,41.96,42.96,71.6,6.93
286,Udachny,90,RU,1595372584,100,66.42,112.4,44.6,4.47
287,Matara,100,LK,1595372450,89,5.95,80.54,78.06,4.12
288,Marawi,100,PH,1595372534,89,8.0,124.29,75.99,5.99
289,Nanortalik,98,GL,1595372416,65,60.14,-45.24,52.52,14.38
290,Camaná,62,PE,1595372583,76,-16.62,-72.71,59.52,7.09
291,Cabedelo,59,BR,1595372771,83,-6.98,-34.83,73.4,5.82
292,Abu Dhabi,40,AE,1595372415,22,24.47,54.37,102.2,5.82
293,Talnakh,40,RU,1595372468,87,69.49,88.4,51.8,24.61
294,Lakeway,40,US,1595372821,46,30.36,-97.98,93.0,6.93
295,Russell,20,US,1595372199,50,32.35,-85.2,95.0,7.87
296,Alamosa,1,US,1595372795,28,37.47,-105.87,82.4,20.8
297,Kissidougou,89,GN,1595372822,97,9.18,-10.1,69.19,5.08
298,Coroieni,6,RO,1595372822,93,47.37,23.77,64.4,3.36
299,Guerrero Negro,8,MX,1595372527,59,27.98,-114.06,75.15,18.72
300,La Ronge,75,CA,1595372436,50,55.1,-105.28,75.2,8.05
301,Tarko-Sale,15,RU,1595372765,78,64.92,77.78,52.0,15.48
302,Eilat,0,IL,1595372400,38,29.56,34.95,87.8,13.87
303,Shawinigan,75,CA,1595372822,41,46.57,-72.75,75.2,4.7
304,Sibolga,100,ID,1595372777,84,1.74,98.78,75.6,3.91
305,Rājāpur,100,IN,1595372504,75,25.38,81.15,84.33,3.51
306,Berja,20,ES,1595372822,69,36.85,-2.95,80.6,8.05
307,Hofn,100,IS,1595372500,78,64.25,-15.21,52.2,14.29
308,Aparecida do Taboado,1,BR,1595372823,44,-20.09,-51.09,71.98,1.14
309,Nizhniy Odes,0,RU,1595372823,81,63.64,54.86,54.82,5.7
310,Bathsheba,20,BB,1595372426,70,13.22,-59.52,84.2,18.34
311,Muroto-misakicho,75,JP,1595372782,83,33.28,134.15,80.6,4.7
312,Buribay,98,RU,1595372823,95,51.96,58.16,63.61,11.3
313,Henties Bay,0,NA,1595372407,37,-22.12,14.28,64.99,3.18
314,Zabul Province,0,AF,1595372757,72,32.25,67.25,63.39,9.44
315,Shache,100,CN,1595372697,21,38.42,77.24,75.54,15.9
316,Ottawa,40,CA,1595372683,36,45.41,-75.7,78.8,10.29
317,Waipawa,84,NZ,1595372481,85,-41.41,175.52,50.0,16.28
318,Vanavara,0,RU,1595372541,77,60.34,102.28,56.37,0.94
319,La Llanada,63,CO,1595372824,100,1.49,-77.58,49.64,3.8
320,Ndjolé,26,GA,1595372824,90,-0.18,10.76,72.61,2.66
321,Nara,40,JP,1595372520,65,34.69,135.8,84.0,8.05
322,Westport,20,US,1595372484,55,41.14,-73.36,88.0,10.29
323,Chicama,66,PE,1595372520,75,-7.84,-79.15,64.36,7.23
324,Lárdos,0,GR,1595372824,58,36.09,28.02,82.4,10.29
325,Kruisfontein,0,ZA,1595372542,39,-34.0,24.73,57.24,6.82
326,Mareeba,88,AU,1595372824,94,-17.0,145.43,71.01,5.03
327,Saint-Joseph,75,RE,1595372449,77,-21.37,55.62,62.6,8.05
328,Mount Gambier,90,AU,1595372400,93,-37.83,140.77,44.6,4.7
329,Gwanda,0,ZW,1595372825,73,-20.93,29.0,49.12,4.83
330,Malanje,0,AO,1595372747,33,-9.54,16.34,60.66,1.36
331,Trelew,100,AR,1595372504,71,-43.25,-65.31,42.71,18.1
332,Malé,75,MV,1595372564,78,4.17,73.51,82.4,20.8
333,Diego de Almagro,79,CL,1595372720,75,-26.37,-70.05,47.28,3.51
334,Betim,0,BR,1595372825,53,-19.97,-44.2,71.6,4.7
335,Kota Kinabalu,20,MY,1595372825,94,5.97,116.07,77.0,4.7
336,Pangnirtung,90,CA,1595372498,93,66.15,-65.71,50.0,2.24
337,North Branch,45,US,1595372718,94,45.51,-92.98,75.0,4.0
338,Bāgli,93,IN,1595372825,90,22.65,76.35,75.88,4.81
339,Emba,74,KZ,1595372586,32,48.83,58.14,80.26,16.08
340,Pimentel,95,PE,1595372458,68,-6.84,-79.93,68.0,18.34
341,Torrington,20,US,1595372826,59,41.8,-73.12,84.99,1.01
342,Gravdal,98,NO,1595372482,79,68.12,13.5,51.75,4.74
343,Provideniya,75,RU,1595372426,76,64.38,-173.3,50.0,8.95
344,Raja,57,SS,1595372449,96,8.46,25.68,69.89,3.27
345,Manaure,53,CO,1595372711,66,11.78,-72.44,86.31,17.13
346,Fukuechō,100,JP,1595372452,91,32.69,128.84,78.93,8.57
347,Lagos,20,NG,1595372551,88,6.58,3.75,78.8,4.7
348,Kapit,64,MY,1595372759,95,2.02,112.93,74.07,1.23
349,Ternate,51,ID,1595372452,74,0.8,127.4,81.37,5.41
350,Sinnamary,84,GF,1595372442,83,5.38,-52.95,78.44,8.93
351,Markova,42,UA,1595372826,91,48.68,24.41,57.45,3.09
352,Māngrol,89,IN,1595372708,80,21.12,70.12,83.19,7.85
353,Sitka,90,US,1595372523,87,57.05,-135.33,57.2,5.82
354,Changji,24,CN,1595372571,44,44.02,87.32,75.2,11.18
355,Batemans Bay,30,AU,1595372770,97,-35.72,150.18,48.0,2.66
356,Abu Samrah,0,SY,1595372587,53,35.3,37.18,71.69,12.37
357,Kānker,100,IN,1595372827,85,20.27,81.49,76.91,6.24
358,Vulcan,0,RO,1595372827,82,45.38,23.27,58.1,3.33
359,Erdenet,76,MN,1595372772,72,49.03,104.08,62.83,2.48
360,Whitehorse,75,CA,1595372222,55,60.72,-135.05,64.4,9.17
361,Longyearbyen,99,SJ,1595372411,75,78.22,15.64,49.39,2.73
362,Mattru,100,SL,1595372659,96,7.62,-11.83,73.71,1.7
363,Dauriya,61,RU,1595372827,64,49.93,116.87,65.16,5.39
364,Qasigiannguit,98,GL,1595372534,50,68.82,-51.19,53.6,2.24
365,Departamento de Maldonado,100,UY,1595372301,100,-34.67,-54.92,59.0,3.36
366,Saint-Augustin,27,CA,1595372596,51,51.23,-58.65,72.27,8.34
367,Baharly,0,TM,1595372828,16,38.44,57.43,88.83,7.61
368,Goundam,0,ML,1595372696,32,16.41,-3.67,92.53,6.76
369,Havre-St-Pierre,1,CA,1595372553,77,50.23,-63.6,62.6,25.28
370,Myitkyina,100,MM,1595372828,97,25.38,97.4,74.08,1.77
371,Balabac,100,PH,1595372828,78,7.99,117.06,82.62,9.69
372,Soyo,0,AO,1595372545,88,-6.13,12.37,70.81,9.26
373,Huambo,0,AO,1595372537,51,-12.78,15.74,48.85,1.43
374,Kargil,94,IN,1595372828,58,34.57,76.1,46.89,5.68
375,Chumikan,100,RU,1595372778,91,54.72,135.31,51.53,11.72
376,Umluj,34,SA,1595372466,60,25.02,37.27,86.14,9.1
377,Lagoa,0,PT,1595372544,78,39.05,-27.98,69.12,4.36
378,Hasaki,75,JP,1595372527,94,35.73,140.83,77.0,6.93
379,Muhafazat Lahij,56,YE,1595372829,58,13.17,44.58,83.44,3.42
380,Lake City,40,US,1595372810,100,30.19,-82.64,82.0,4.7
381,Poltavka,12,RU,1595372829,90,54.37,71.76,55.65,7.47
382,North Myrtle Beach,1,US,1595372511,70,33.82,-78.68,87.8,13.87
383,Muravlenko,0,RU,1595372545,79,63.79,74.52,46.67,8.48
384,Berdigestyakh,22,RU,1595372517,70,62.1,126.7,61.86,9.04
385,Gorontalo,18,ID,1595372728,87,0.54,123.06,76.39,2.01
386,Loreto,53,MX,1595372592,37,22.27,-101.97,77.43,7.65
387,Santa Fe,100,AR,1595372642,80,-31.63,-60.7,63.0,4.0
388,Uyuni,60,BO,1595372816,43,-20.46,-66.83,47.48,3.96
389,Moundsville,75,US,1595372621,58,39.92,-80.74,87.01,6.93
390,Quatre Cocos,75,MU,1595372493,72,-20.21,57.76,68.0,13.87
391,Kieta,19,PG,1595372581,70,-6.22,155.63,83.75,6.8
392,Namatanai,32,PG,1595372454,76,-3.67,152.43,82.81,6.46
393,Matagami,1,CA,1595372542,36,49.75,-77.63,75.2,2.95
394,Kitui,90,KE,1595372830,88,-1.37,38.01,61.93,7.58
395,Biak,51,ID,1595372444,80,-0.91,122.88,77.61,7.65
396,Tuatapere,82,NZ,1595372427,83,-46.13,167.68,39.0,3.0
397,Ruswil,75,CH,1595372830,88,47.08,8.13,68.0,3.36
398,Kropotkin,0,RU,1595372741,85,45.44,40.58,62.65,6.42
399,Sacramento,5,US,1595372550,37,38.47,-121.32,84.0,10.29
400,Galle,99,LK,1595372697,86,6.04,80.22,79.52,3.36
401,Río Gallegos,0,AR,1595372299,92,-51.62,-69.22,30.2,6.93
402,Bubaque,100,GW,1595372243,78,11.28,-15.83,79.5,5.03
403,Dakar,75,SN,1595372637,94,14.69,-17.44,78.8,5.93
404,Oxelösund,75,SE,1595372831,93,58.67,17.1,53.6,10.29
405,Belyy Yar,40,RU,1595372504,82,53.6,91.39,62.6,6.71
406,Pangkalanbuun,74,ID,1595372557,98,-2.68,111.62,74.23,2.01
407,Lüderitz,0,NA,1595372529,37,-26.65,15.16,68.0,8.05
408,Trairi,31,BR,1595372465,76,-3.28,-39.27,77.97,8.93
409,Harindānga,75,IN,1595372538,94,22.04,88.32,78.8,3.36
410,Amberley,40,US,1595372831,62,39.2,-84.43,91.99,9.17
411,Ca Mau,16,VN,1595372831,88,9.18,105.15,77.04,0.16
412,Batagay-Alyta,20,RU,1595372831,49,67.8,130.41,71.13,16.55
413,Oktyabr'skoye,98,RU,1595372526,88,43.06,44.74,66.2,2.24
414,Nicolás R Casillas,40,MX,1595372831,23,20.53,-103.47,87.01,4.05
415,San Andrés,75,CO,1595372451,83,12.58,-81.7,84.2,5.82
416,Urucará,60,BR,1595372575,62,-2.54,-57.76,80.71,2.3
417,Kholuy,98,RU,1595372832,97,56.58,41.87,56.95,5.86
418,Nakapiripirit,95,UG,1595372832,84,1.92,34.78,64.72,5.44
419,Tautira,20,PF,1595372539,65,-17.73,-149.15,82.4,6.93
420,Itacoatiara,37,BR,1595372832,83,-3.14,-58.44,82.4,1.01
421,Narsaq,50,GL,1595372421,36,60.92,-46.05,62.6,9.17
422,Acapulco de Juárez,75,MX,1595372467,74,16.86,-99.89,86.0,6.93
423,Broken Hill,90,AU,1595372481,100,-31.95,141.43,33.8,5.82
424,Fortuna,1,US,1595372492,77,40.6,-124.16,66.0,17.22
425,Santiago del Estero,100,AR,1595372313,56,-27.8,-64.26,62.98,5.68
426,Tain,95,GB,1595372832,87,57.81,-4.06,52.0,2.24
427,La Malbaie,26,CA,1595372782,70,47.66,-70.16,69.01,5.01
428,Chandler,1,US,1595372725,10,33.31,-111.84,109.99,5.82
429,Coahuayana Viejo,75,MX,1595372535,70,18.73,-103.68,86.0,11.41
430,Kodinsk,88,RU,1595372558,58,58.69,99.18,59.32,3.02
431,Mitchell,20,US,1595372544,60,43.71,-98.03,75.2,8.05
432,Iberia,40,US,1595372496,83,29.95,-91.75,87.8,5.82
433,Santa María del Oro,95,MX,1595372520,45,25.93,-105.37,76.78,4.21
434,Alice Springs,40,AU,1595372313,100,-23.7,133.88,41.0,11.27
435,Buin,90,CL,1595372833,93,-33.73,-70.75,46.4,7.34
436,Novomichurinsk,16,RU,1595372833,92,54.04,39.75,58.48,8.01
437,Provincia di Campobasso,0,IT,1595372833,78,41.63,14.58,69.01,3.4
438,Bartica,75,GY,1595372833,94,6.4,-58.62,77.0,11.41
439,Lata,28,PT,1595372540,85,40.16,-8.33,70.0,4.52
440,Anchorage,1,US,1595372769,40,61.22,-149.9,73.0,9.17
441,Gigmoto,95,PH,1595372548,78,13.78,124.39,82.31,1.81
442,Yangcun,1,CN,1595372834,69,39.36,117.06,78.8,2.24
443,Gambēla,100,ET,1595372739,91,8.25,34.58,70.09,2.46
444,Bundaberg,100,AU,1595372541,72,-24.85,152.35,63.0,10.29
445,Kānt,97,IN,1595372834,79,27.8,79.8,79.97,2.68
446,Anadyr,20,RU,1595372429,58,64.75,177.48,57.2,6.71
447,Auki,53,SB,1595372684,68,-8.77,160.7,83.17,9.08
448,Skopelos Town,0,GR,1595372834,55,39.12,23.72,75.0,1.01
449,Sombrio,79,BR,1595372834,75,-29.11,-49.62,65.64,3.27
450,Lékoni,45,GA,1595372597,49,-1.58,14.26,80.42,3.53
451,Rochegda,59,RU,1595372834,91,62.8,43.25,56.82,6.51
452,Mandera,35,KE,1595372729,57,3.94,41.87,76.82,20.69
453,Mabaruma,99,GY,1595372586,92,8.2,-59.78,75.99,3.18
454,Camapuã,0,BR,1595372835,33,-19.53,-54.04,73.72,6.2
455,Caraquet,1,CA,1595372835,44,47.79,-64.94,75.2,9.17
456,Toamasina,51,MG,1595372527,80,-18.17,49.38,66.18,9.04
457,Toktogul,12,KG,1595372835,56,41.87,72.94,61.12,1.21
458,Álamos,94,MX,1595372835,47,27.02,-108.93,98.01,3.0
459,Mount Isa,0,AU,1595372225,30,-20.73,139.5,57.2,10.29
460,Nur-Sultan,49,KZ,1595372787,87,51.18,71.45,55.4,13.42
461,Koutsouras,0,GR,1595372835,46,35.03,25.95,80.01,17.0
462,Mago,100,RU,1595372835,96,53.25,140.18,57.43,5.1
463,Dinguiraye,100,GN,1595372835,91,11.3,-10.72,72.27,3.67
464,Kargasok,95,RU,1595372721,81,59.06,80.86,56.64,9.71
465,Warrnambool,100,AU,1595372286,97,-38.38,142.48,46.99,1.01
466,Awjilah,0,LY,1595372585,48,29.11,21.29,76.82,16.4
467,Bosaso,23,SO,1595372567,47,11.28,49.18,89.04,11.41
468,Kailua,20,US,1595372517,62,21.4,-157.74,84.2,11.41
469,Ferrol,20,ES,1595372759,82,43.48,-8.24,64.99,3.36
470,Araouane,24,ML,1595372498,28,18.9,-3.53,97.57,15.82
471,Ballyhaunis,100,IE,1595372836,85,53.77,-8.77,55.99,11.01
472,Constitución,98,CL,1595372502,80,-35.33,-72.42,51.28,10.63
473,Kodala,100,IN,1595372836,88,19.63,84.95,79.61,1.25
474,Bolgatanga,42,GH,1595372836,85,10.79,-0.85,77.13,4.32
475,Sørland,93,NO,1595372454,80,67.67,12.69,52.3,11.65
476,Viedma,100,AR,1595372478,88,-40.81,-63.0,46.0,7.0
477,Safi,0,MA,1595372542,89,32.3,-9.24,69.6,9.15
478,Tezu,100,IN,1595372737,87,27.92,96.17,74.89,1.99
479,Ahipara,74,NZ,1595372410,70,-35.17,173.17,53.33,23.42
480,Mürzzuschlag,96,AT,1595372837,82,47.6,15.68,64.99,4.0
481,Penzance,95,GB,1595372522,87,50.12,-5.54,59.0,6.93
482,Pāsighāt,100,IN,1595372837,88,28.07,95.33,75.45,2.21
483,Doha,15,QA,1595372464,79,25.29,51.53,95.0,3.36
484,Mayo,1,US,1595372607,59,38.89,-76.51,91.99,3.36
485,Tiarei,20,PF,1595372578,65,-17.53,-149.33,82.4,6.93
486,Helena,1,US,1595372818,14,46.59,-112.04,93.2,13.87
487,Kapuskasing,75,CA,1595372542,44,49.42,-82.43,75.2,8.05
488,Williams Lake,75,CA,1595372806,53,52.14,-122.14,73.4,3.36
489,Qujing,100,CN,1595372838,92,25.48,103.78,60.58,6.73
490,Bastrop,90,US,1595372731,94,32.76,-91.87,78.8,19.46
491,Qandala,7,SO,1595372838,54,11.47,49.87,88.11,12.41
492,Popondetta,64,PG,1595372838,76,-8.75,148.25,79.83,2.3
493,Bud,83,US,1595372769,78,39.45,-86.18,86.0,4.92
494,Kidal,100,ML,1595372526,44,18.44,1.41,85.66,16.78
495,Jacksonville,40,US,1595372664,55,30.33,-81.66,90.0,10.29
496,Verkhnyaya Inta,0,RU,1595372574,75,65.98,60.31,57.43,8.12
497,Port Lincoln,23,AU,1595372428,69,-34.73,135.87,51.24,5.73
498,Kaeo,15,NZ,1595372454,3,-35.1,173.78,53.01,11.99
499,Mukhtolovo,97,RU,1595372839,98,55.46,43.2,57.61,5.3
500,Magadan,100,RU,1595372690,68,59.57,150.8,59.13,5.53
501,Borovskoy,53,KZ,1595372839,85,53.8,64.15,55.92,7.11
502,Võhma,0,EE,1595372839,92,58.63,25.55,55.99,5.37
503,Spirit River,75,CA,1595372839,64,55.78,-118.84,69.8,6.93
504,Níjar,20,ES,1595372839,69,36.97,-2.21,80.6,8.05
505,Inírida,92,CO,1595372548,94,3.87,-67.92,75.72,0.65
506,Sri Aman,100,MY,1595372524,100,1.24,111.46,75.2,0.18
507,Yining,83,CN,1595372839,87,29.04,114.56,78.73,2.28
508,Virginia Beach,40,US,1595372682,44,36.85,-75.98,97.0,12.75
509,Badnāwar,100,IN,1595372824,86,23.02,75.22,78.12,9.71
510,Aljezur,0,PT,1595372748,82,37.32,-8.8,73.99,3.71
511,Tecpatán,75,MX,1595372840,65,17.13,-93.3,82.4,20.8
512,General Roca,90,AR,1595372772,87,-39.03,-67.58,44.6,6.93
513,King City,49,US,1595372840,41,36.21,-121.13,93.99,9.33
514,Antofagasta,75,CL,1595372316,77,-23.65,-70.4,59.0,13.87
515,Saint-Raymond,75,CA,1595372840,47,45.47,-73.61,78.01,11.41
516,Bulungu,0,CD,1595372840,41,-4.55,18.6,75.33,0.85
517,Marrakesh,0,MA,1595372745,42,31.63,-8.01,82.4,6.93
518,Sete Lagoas,0,BR,1595372620,64,-19.47,-44.25,71.6,9.17
519,Anloga,20,GH,1595372592,88,5.79,0.9,75.2,6.93
520,Kamaishi,75,JP,1595372464,88,39.27,141.88,71.6,3.36
521,Buraidah,0,SA,1595372456,13,26.33,43.98,87.33,6.85
522,Maniitsoq,95,GL,1595372666,78,65.42,-52.9,49.93,6.13
523,Khāsh,0,IR,1595372841,92,28.22,61.22,66.79,3.49
524,Muzhi,2,RU,1595372495,85,65.37,64.67,54.79,4.65
525,Areosa,4,PT,1595372841,77,41.72,-8.86,77.0,1.45
526,Half Moon Bay,75,US,1595372841,82,37.46,-122.43,73.99,9.17
527,Kutum,71,SD,1595372583,51,14.2,24.67,78.57,5.1
528,Rio Grande City,77,US,1595372841,47,26.38,-98.82,98.01,3.0
529,Alofi,40,NU,1595372436,78,-19.06,-169.92,82.4,8.05
530,Vrangel',91,RU,1595372683,69,42.73,133.08,70.32,6.89
531,Peski,23,RU,1595372841,88,55.22,38.76,62.6,4.47
532,Vila do Maio,44,CV,1595372463,74,15.13,-23.22,80.6,5.82
533,Puerto Escondido,75,MX,1595372538,70,15.85,-97.07,84.2,8.05
534,Kamyshin,2,RU,1595372842,69,50.1,45.42,65.03,6.93
535,Sovetskiy,0,RU,1595372842,71,61.36,63.58,56.28,1.63
536,Sola,63,VU,1595372490,71,-13.88,167.55,77.04,19.73
537,Kirksville,1,US,1595372842,73,40.19,-92.58,78.01,5.82
538,Monywa,99,MM,1595372842,81,22.12,95.13,79.07,8.63
539,Jieshi,4,CN,1595372424,82,22.81,115.83,81.77,7.07
540,Pāppinisshēri,80,IN,1595372842,90,11.95,75.35,78.13,2.48
541,Hervey Bay,100,AU,1595372688,72,-25.3,152.85,63.0,10.29
542,Souillac,75,MU,1595372525,72,-20.52,57.52,68.0,13.87
543,Mendi,31,PG,1595372842,82,-6.18,143.65,61.99,2.35
544,Twentynine Palms,40,US,1595372842,8,34.14,-116.05,107.6,16.11
545,Madang,35,PG,1595372745,85,-5.22,145.8,81.03,1.23
546,Puerto Rico,100,AR,1595372843,77,-26.8,-55.02,66.97,3.13
547,Cherskiy,57,RU,1595372483,32,68.75,161.3,77.02,10.47
548,Nuuk,45,GL,1595372431,58,64.18,-51.72,55.4,4.7
549,Yulara,16,AU,1595372511,81,-25.24,130.99,42.8,8.05
550,Sunndalsøra,100,NO,1595372843,87,62.68,8.55,48.2,20.8
551,Amahai,70,ID,1595372843,92,-3.33,128.92,84.0,1.01
552,Chālūs,0,IR,1595372843,78,36.66,51.42,78.8,2.24
553,Imeni Poliny Osipenko,96,RU,1595372843,88,52.42,136.49,59.9,8.84
554,Mananjary,68,MG,1595372843,80,-21.22,48.33,66.04,5.06
555,Kodīnar,84,IN,1595372843,83,20.79,70.7,82.58,7.34
556,Manokwari,21,ID,1595372546,65,-0.87,134.08,82.83,3.51
557,Padang,100,ID,1595372159,81,-0.95,100.35,77.65,3.04
558,Chapais,40,CA,1595372519,46,49.78,-74.85,69.8,10.29
559,Ambilobe,71,MG,1595372680,78,-13.2,49.05,63.1,3.49
560,Nueve de Julio,100,AR,1595372844,98,-35.44,-60.88,53.01,4.0
561,Kinkala,0,CG,1595372844,88,-4.36,14.76,71.6,4.7
562,Salta,40,AR,1595372728,82,-24.79,-65.41,62.6,9.17
563,Vilhena,0,BR,1595372366,50,-12.74,-60.15,77.0,5.82
564,Kuantan,20,MY,1595372844,88,3.81,103.33,77.0,1.12
565,Takoradze,100,GH,1595372605,92,4.88,-1.76,75.4,9.66
566,Pailitas,100,CO,1595372844,86,8.96,-73.63,80.37,2.13
567,San Cristobal,75,VE,1595372340,58,7.77,-72.22,86.0,4.7
568,Moskovskiy,13,RU,1595372844,87,55.6,37.35,63.0,8.95
569,Banjar,40,ID,1595372473,100,-8.19,114.97,78.8,11.41
570,Castelo do Piauí,40,BR,1595372844,39,-5.32,-41.55,77.59,4.85
571,Pemangkat,31,ID,1595372690,90,1.17,108.97,75.76,5.55
572,Todos Santos,1,MX,1595372462,75,23.45,-110.22,79.0,4.0
